s. no,region,wh type,warehouse,district,capacity,occupancy,vacancy,latitude,longitude,address,status
1,KARIMNAGAR,AMC,AMC LOKESHWARAM,NIRMAL,5000.0,2283.99,2716.01,19.025617,78.075036,AMC LOKESHWARAM,Active
2,KARIMNAGAR,AMC,MALLAPUR,JAGTIAL,5000.0,,5000.0,18.917258,78.797487,,Active
3,KARIMNAGAR,AMC,MATEGAM,ADILABAD,1665.0,,1665.0,,,,Active
4,KARIMNAGAR,AMC,THANOOR,ADILABAD,5000.0,,5000.0,,,,Active
5,KARIMNAGAR,HIRED,ARMOOR,NIZAMABAD,15000.0,,15000.0,18.78821,78.289097,"WHM, TSWC., HUZURABAD, K.C.Camp, Karimnagar Dist. 505 498.",Active
6,NALGONDA,AMC,ALER AMC,NALGONDA,5000.0,1833.06,3166.94,17.648892,79.061984,"Aler Marcket Yard, Beside Govt Hospital/MDO Office",Active
7,KARIMNAGAR,OWN,JAGTIAL OWN,JAGTIAL,11340.0,,11340.0,18.7833326,78.9116959,"WHM, TSWC.,Near Bus Depot, JAGTIAL, Karimnagar Dist - 505 327.",Active
8,KARIMNAGAR,OWN,JAMMIKUNTA OWN,KARIMNAGAR,17500.0,22351.92,-4851.92,18.3023718,79.4706887,"WHM, TSWC., JAMMIKUNTA, Karimnagar Dist - 505 122.",Active
9,KARIMNAGAR,OWN,KAMAREDDY OWN,KAMAREDDY,15000.0,14705.32,294.68,18.3377718,78.31664479999999,"WHM, TSWC., Industrial Area, KAMAREDDY, Nizamabad Dist -– 503 111.",Active
10,KARIMNAGAR,OWN,KARIMNAGAR OWN,KARIMNAGAR,15500.0,21481.74,-5981.74,18.444290600000002,79.1564403,"WHM, TSWC., KARIMNAGAR,H.No: 10-63, Opp: Trinity College, BOMMAKAL VIL., Karimnagar Dist - 505 001.",Active
11,KARIMNAGAR,OWN,KORUTLA OWN,JAGTIAL,3200.0,3397.73,-197.73,18.82807,78.6998645,"WHM, TSWC., KORUTLA, Near Market Yard, Karimnagar Dist - 505 325.",Active
12,KARIMNAGAR,OWN,METPALLI OWN,JAGTIAL,10700.0,11147.56,-447.56,18.8459999,78.6344616,"WHM, TSWC., METPALLI, Near Bus Depot, Karimnagar Dist - 505 325.",Active
13,KARIMNAGAR,OWN,PEDDAPALLY OWN,PEDDAPALLY,8300.0,2516.03,5783.97,18.6262617,79.3907814,"WHM, TSWC., PEDDAPALLI, Bandampalli Village, via Appannapet, Karimnagar Dist - 505 172.",Active
14,KARIMNAGAR,OWN,SARANGAPUR OWN,NIZAMABAD,10000.0,10566.59,-566.59,18.6853362,78.0546033,"WHM, TSWC., SARANGAPUR, Near AP Dairy Farm, Opp: Sri Rama Temple, Hanuman Temple Road, Nizamabad Dist - 503 186.",Active
15,KARIMNAGAR,INVESTOR GODOWN,KATNAPALLY IG,KARIMNAGAR,25000.0,30545.6,-5545.6,,,Katnapally,Active
16,KARIMNAGAR,INVESTOR GODOWN,KHANAPUR IG,NIRMAL,13850.0,18591.7,-4741.7,19.044948,78.641701,Khanapur Nizambad,Active
17,KARIMNAGAR,INVESTOR GODOWN,MANCHERIAL IG,No Data,5000.0,7734.84,-2734.84,,,Mancherial,Active
18,KARIMNAGAR,INVESTOR GODOWN,PEDDAPALLI -I RANGAPUR,No Data,10000.0,,10000.0,,,"WHM, TSWC., Rangapur, PEDDAPALLI MDL, Karimnagar Dist - 505 172.",Active
19,KARIMNAGAR,INVESTOR GODOWN,RAGHAVAPUR-IG,KARIMNAGAR,5000.0,23715.56,-18715.56,,,Raghavapur,Active
20,KARIMNAGAR,INVESTOR GODOWN,SUDDALA -I IG,No Data,30000.0,16938.92,13061.08,,,Suddala,Active
21,KARIMNAGAR,INVESTOR GODOWN,SULTHANABAD IG,No Data,5000.0,30544.96,-25544.96,,,Sulthanabad,Active
22,KARIMNAGAR,INVESTOR GODOWN,THEEGALPAHAD,No Data,6000.0,,6000.0,,,Theegalpahad,Active
23,KARIMNAGAR,AMC,AMC PGADIPALLY,KAMAREDDY,2500.0,,2500.0,,,AMAC PGADIPALLY,Active
24,KARIMNAGAR,AMC,ARMOOR AMC,NIZAMABAD,2500.0,2755.16,-255.16,18.78821,78.289097,AMC ARMOOR,Active
25,KARIMNAGAR,AMC,AMC ASIFABAD,KOMARAM BHEEM ASIFABAD,10000.0,,10000.0,19.359937,79.266953,AMC ASIFABAD,Active
26,KARIMNAGAR,AMC,BALKONDA AMC,NIZAMABAD,5000.0,602.62,4397.38,18.876767,78.34742,AMC BALKONDA,Active
27,KARIMNAGAR,AMC,AMC BANDALNAGAPUR,KARIMNAGAR,5000.0,727.0,4273.0,,,AMC BANDALNAGAR,Active
28,KARIMNAGAR,AMC,BELLAMPALLY AMC,MANCHERIAL,7500.0,7086.72,413.28,19.086889000000003,79.477047,AMC BELAMPALLY,Active
29,KARIMNAGAR,AMC,AMC BHAINSA,NIRMAL,2500.0,,2500.0,19.014419,77.83935100000001,AMC BHAINSA,Active
30,KARIMNAGAR,AMC,AMC BHEEMGAL,NIZAMABAD,3650.0,,3650.0,18.722294,78.48745,AMC BHEEMGAL,Active
31,KARIMNAGAR,AMC,AMC BHIMARAM,WARANGAL(U),5000.0,,5000.0,,,AMC BHIMARAM,Active
32,KARIMNAGAR,AMC,BIRKUR AMC,KAMAREDDY,7500.0,4927.16,2572.84,18.469626,77.804448,AMC BHIRKUR,Active
33,KARIMNAGAR,AMC,AMC BOINPALLY,RAJANNA SIRCILLA,5000.0,,5000.0,18.506035,78.927961,AMC BOINPALLY,Active
34,KARIMNAGAR,AMC,BOPPAPUR AMC,RAJANNA SIRCILLA,10000.0,1550.68,8449.32,18.371101,78.63081,AMC BOPPAPUR,Active
35,KARIMNAGAR,AMC,AMC CHANDURTHY,RAJANNA SIRCILLA,5000.0,,5000.0,18.535589,78.80325500000001,AMC CHANDURTHY,Active
36,KARIMNAGAR,AMC,AMC CHELGAL,JAGTIAL,5000.0,3184.19,1815.81,18.847078,78.631138,AMC CHELGAL,Active
37,KARIMNAGAR,AMC,AMC CHEPYAL,JAGTIAL,5000.0,134.51,4865.49,18.625535,78.930255,AMC CHEPYAL,Active
38,KARIMNAGAR,AMC,AMC DHARMAPURI,JAGTIAL,2500.0,,2500.0,18.850208,79.16905200000001,AMC DHARMAPURI,Active
39,KARIMNAGAR,AMC,AMC DUDENAPALLY,KARIMNAGAR,5000.0,,5000.0,,,AMC DUDENAPALLY,Active
40,KARIMNAGAR,AMC,ECHODA AMC,ADILABAD,2500.0,1863.45,636.55,19.440163000000002,78.455853,AMC ECHODA,Active
41,KARIMNAGAR,AMC,ILLANTHAKUNTA AMC,RAJANNA SIRCILLA,5000.0,1761.52,3238.48,18.320439,78.926058,AMC ELLANTAKUNTA,Active
42,KARIMNAGAR,AMC,GANGADHARA AMC,KARIMNAGAR,5000.0,1314.1,3685.9,18.694221,79.06170999999999,AMC GANGADHARA,Active
43,KARIMNAGAR,AMC,GARREPALLY AMC,PEDDAPALLY,10000.0,15902.13,-5902.13,18.496962,79.246967,GARREPALLY AMC,Active
44,KARIMNAGAR,AMC,AMC HUZURABAD,KARIMNAGAR,2500.0,,2500.0,18.216462,79.261032,AMC HUZURABAD,Active
45,KARIMNAGAR,AMC,AMC IBRAHIMPATNAM,RANGA REDDY,2500.0,,2500.0,17.188829000000002,78.646914,AMC IBRAHIMPATNAM,Active
46,KARIMNAGAR,AMC,AMC JAINOOR,KOMARAM BHEEM ASIFABAD,5000.0,,5000.0,19.37511,78.905007,AMC JAINOOR,Active
47,KARIMNAGAR,AMC,JAMMIKUNTA AMC,KARIMNAGAR,6600.0,9206.53,-2606.53,,,AMC JAMMIKUNTA,Active
48,KARIMNAGAR,AMC,AMC JANNARAM,MANCHERIAL,5000.0,,5000.0,19.114601999999998,78.9926,AMC JANNARAM,Active
49,KARIMNAGAR,AMC,AMC JHAMSARANGAPUR,ADILABAD,5000.0,,5000.0,,,AMC JHAMSARANGAPUR,Active
50,KARIMNAGAR,AMC,AMC KESHAVAPATNAM,KARIMNAGAR,5000.0,,5000.0,18.293354,79.30545699999999,AMC KESHAVAPATNAM,Active
51,KARIMNAGAR,AMC,AMC KONARAOPET,RAJANNA SIRCILLA,5000.0,5571.1,-571.1,18.481007,78.69218000000001,AMC KONARAOPET,Active
52,KARIMNAGAR,AMC,AMC KUNTALA,ADILABAD,5000.0,,5000.0,19.23795,77.840023,AMC KUNTALA,Active
53,KARIMNAGAR,AMC,AMC LUXETTIPET,MANCHERIAL,7500.0,,7500.0,19.025272,79.126723,AMC LUXETTIPET,Active
54,KARIMNAGAR,AMC,AMC MAKLOOR,NIZAMABAD,5000.0,,5000.0,18.758172000000002,78.128967,AMC MAKLOOR,Active
55,KARIMNAGAR,AMC,MANDAMARRI AMC,MANCHERIAL,5000.0,4346.16,653.84,18.972732,79.491351,AMC MANDAMARRY,Active
56,KARIMNAGAR,AMC,AMC METPALLY,JAGTIAL,4000.0,,4000.0,18.848076000000002,78.630788,AMC METPALLY,Active
57,KARIMNAGAR,AMC,AMC NANDIPET,NIZAMABAD,5000.0,,5000.0,18.840854999999998,78.13833299999999,AMC NANDIPET,Active
58,KARIMNAGAR,AMC,NARMALA AMC,RAJANNA SIRCILLA,10000.0,4274.86,5725.14,,,AMC NARMALA,Active
59,KARIMNAGAR,AMC,AMC NIRMAL,NIRMAL,5000.0,4447.17,552.83,19.141303,78.344084,AMC NIRMAL,Active
60,KARIMNAGAR,AMC,NIZAMABAD AMC,NIZAMABAD,12500.0,,12500.0,18.631435,78.050802,AMC NIZAMBAD,Active
61,KARIMNAGAR,AMC,PEDDAPALLY AMC,PEDDAPALLY,3300.0,2274.16,1025.84,,,AMC PEDAPALLY,Active
62,KARIMNAGAR,AMC,PITLAM AMC,KAMAREDDY,5000.0,835.26,4164.74,18.228386999999998,77.82356,AMC PITLAM,Active
63,KARIMNAGAR,AMC,AMC PULSI,ADILABAD,5000.0,2120.75,2879.25,19.228489,77.894577,AMC PULSI,Active
64,KARIMNAGAR,AMC,AMC RAIKAL,JAGTIAL,2500.0,1138.41,1361.59,18.917089999999998,78.798278,AMC RAIKAL,Active
65,KARIMNAGAR,AMC,RENJAL AMC,NIZAMABAD,5000.0,4197.22,802.78,18.754770999999998,77.935496,AMC RENJAL,Active
66,KARIMNAGAR,AMC,AMC SARANGAPUR,NIRMAL,5000.0,4379.92,620.08,19.141299,78.344109,AMC SARANGAPUR,Active
67,KARIMNAGAR,AMC,AMC SARDHAPUR,RAJANNA SIRCILLA,3000.0,,3000.0,,,AMC SARDHAPUR,Active
68,KARIMNAGAR,AMC,AMC VELPUR,NIZAMABAD,5000.0,,5000.0,18.800387,78.363907,AMC VELPUR,Active
69,KARIMNAGAR,AMC,AMC VELGATUR,JAGTIAL,3300.0,2994.35,305.65,18.76599,79.193333,AMC VELGATUR,Active
70,KARIMNAGAR,AMC,YELLARAM AMC,ADILABAD,5000.0,3720.96,1279.04,,,AMC YELLARAM,Active
71,KARIMNAGAR,AMC,CHELGAL (BR. TO JAGTIAL),KARIMNAGAR,0.0,,0.0,,,"WHM, APSWC., JAGTIAL, Karimnagar Dist - 505 327.",Active
72,KARIMNAGAR,AMC,CHELPUR / SHALAPALLI (BR TO JAMMIKUNTA),KARIMNAGAR,0.0,,0.0,,,"WHM, APSWC.,CHELPUR(Shalapally)Behind Anjaneya Temple, JAMMIKUNTA, Karimnagar Dist - 505 122.",Active
73,KARIMNAGAR,AMC,HUZURABAD IG - I,KARIMNAGAR,25000.0,26764.94,-1764.94,,,"WHM, APSWC., HUZURABAD, K.C.Camp, Karimnagar Dist. 505 498.",Active
74,KARIMNAGAR,AMC,KHANAPUR/NIZAMABAD,No Data,10930.0,,10930.0,,,"WHM, APSWC, Khanapur, Arikela Narasareddy Godowns, Near :- Trinethra Rice Industries, Kahanapur Bypass road, Nizamabad - 503002",Active
75,KARIMNAGAR,AMC,NARASANAPALLY (BR. TO KAMAREDDY OWN),No Data,10000.0,86.72,9913.28,,,"WHM, APSWC., NARASANNAPALLY, NH 7 Road, Near RTA Check Post, Hyderabad Road, Kamareddy Dist, Nizamabad 503 102.",Active
76,KARIMNAGAR,AMC,RAGHAVAPUR,MEDAK,35000.0,,35000.0,,,"WHM, APSWC., RAGHAVAPUR, Peddapalli Mandal, Karimnagar Dist - 505 172",Active
77,KARIMNAGAR,INVESTOR GODOWN,SUDDALA -II IG,No Data,40000.0,38084.69,1915.31,,,"WHM, APSWC., SUDDALA II (IG), M/s. Sulthanabad Rice Millers Grain Warehouse, Suddala (V & P), Sulthanabad mandal, Karimnagar Dist - 505 185.",Active
78,KARIMNAGAR,AMC,SUDDALA-III IG,No Data,22500.0,49975.25,-27475.25,,,"WHM, APSWC., SUDDALA III (IG), Vill: Kadambapoor, Sulthanabad mandal, Karimnagar Dist - 505 185.",Active
79,KARIMNAGAR,PEG,JANKAMPET,NIZAMABAD,60000.0,,60000.0,,,Jankampet,Active
80,KARIMNAGAR,PEG,SULTHANABAD / SUGLAMPALLY (PEG),No Data,50000.0,75590.07,-25590.07,,,"WHM, TSWC., SUDDALA II (IG), M/s. Sulthanabad Rice Millers Grain Warehouse, Suddala (V & P), Sulthanabad mandal, Karimnagar Dist - 505 185.",Active
81,NALGONDA,AMC,ASWAPURAM AMC,BHADRADRI KOTHAGUDEM,2500.0,3523.32,-1023.32,17.836021,80.842822,AMC ASWAPURAM,Active
82,NALGONDA,AMC,ASWARAOPETA AMC,KHAMMAM,5000.0,9846.27,-4846.27,17.499008,80.82865799999999,AMC ASWARAOPETA,Active
83,NALGONDA,AMC,AMC AVANTIPURAM,NALGONDA,1667.0,3144.08,-1477.08,,,AMC AVANTIPURAM,Active
84,NALGONDA,AMC,BHADRACHALAM AMC,BHADRADRI KOTHAGUDEM,5000.0,2502.2,2497.8,17.6716533,80.8953954,AMC BHADRACHALAM,Active
85,NALGONDA,AMC,BHONGIR AMC,YADADHRI,5000.0,4779.88,220.12,,,"WHM, TSWC., BHONGIR, H.No. 1-3-33, Tagore Road, Nalgonda Dist - 508 116.",Active
86,NALGONDA,AMC,BHURGUMPADU AMC,BHADRADRI KOTHAGUDEM,5000.0,,5000.0,17.86572,80.82996700000001,AMC Bhurgampadu,Active
87,NALGONDA,AMC,AMC CHANDRUGONDA,BHADRADRI KOTHAGUDEM,5000.0,,5000.0,17.383760000000002,80.65609,AMC CHANDRUGONDA,Active
88,NALGONDA,AMC,AMC CHITYAL,NALGONDA,2500.0,,2500.0,17.233005,79.123465,AMC CHITYAL,Active
89,NALGONDA,AMC,AMC DAMMAPETA,BHADRADRI KOTHAGUDEM,2000.0,1674.1,325.9,17.283618,80.092939,AMC Dhammapeta,Active
90,NALGONDA,AMC,AMC KAMEPALLY,KHAMMAM,5000.0,,5000.0,17.395055,80.27799399999999,AMC KAMEPALLY,Active
91,NALGONDA,AMC,AMC MADHIRA,KHAMMAM,5000.0,,5000.0,16.812122,80.46725699999999,AMC MADHIRA,Active
92,NALGONDA,AMC,MALLARAM AMC,KARIMNAGAR,5000.0,2710.58,2289.42,,,AMC MALLARAM,Active
93,NALGONDA,AMC,AMC SURYAPET,SURYAPET,5000.0,,5000.0,,,AMC SURYAPET,Active
94,NALGONDA,AMC,TEKULAPALLY AMC,BHADRADRI KOTHAGUDEM,5000.0,7312.82,-2312.82,17.165518,80.46257299999999,AMC TEKULAPALLY,Active
95,NALGONDA,AMC,THIPPARTHY AMC,NALGONDA,5000.0,5500.28,-500.28,17.012057000000002,79.420086,"WHM,TSWC., NARKETPALLY Pvt Godowns, Nalgonda Dist - 508 254.",Active
96,NALGONDA,AMC,AMC VALIGONDA,YADADHRI,5000.0,,5000.0,,,AMC Valigonda,Active
97,NALGONDA,AMC,VENKATAPURAM AMC,KHAMMAM,5000.0,4366.91,633.09,,,AMC Venkatapuram,Active
98,NALGONDA,AMC,WYRA-AMC,KHAMMAM,6100.0,4271.35,1828.65,17.211038000000002,80.291854,AMC WYRA,Active
99,NALGONDA,OWN,BHONGIR OWN,YADADHRI,3700.0,4128.76,-428.76,17.521638199999998,78.89102609999999,"WHM, TSWC., BHONGIR, H.No. 1-3-33, Tagore Road, Nalgonda Dist - 508 116.",Active
100,NALGONDA,INVESTOR GODOWN,CHITYAL,NALGONDA,15000.0,,15000.0,,,"WHM, TSWC., CHITYAL (IG), Warehousing Complex (V & Post), Peddakaparti Village, Nalgonda Dist - 508114.",Active
101,NALGONDA,INVESTOR GODOWN,DUPPALAPALLY IG,NALGONDA,30000.0,,30000.0,,,"WHM, TSWC, Vill.A.DUPPALPALLY (M) Thipparthy, Miryalguda Road, NALGONDA",Active
102,NALGONDA,INVESTOR GODOWN,DWARAKUNTA- IG,NALGONDA,20000.0,5070.0,14930.0,,,"WHM, TSWC., KODAD – II (IG),Dwarakunta, Nalgonda Dist - 508 201.",Active
103,NALGONDA,INVESTOR GODOWN,HUZURNAGAR IG,NALGONDA,30000.0,34985.83,-4985.83,,,"WHM, TSWC., HUZURNAGAR (IG),Narayanapuram(POST), (Sitharampuram), Nalgonda Dist - 508 202.",Active
104,NALGONDA,OWN,KHAMMAM-I OWN,KHAMMAM,7300.0,3249.05,4050.95,17.237901899999997,80.13312979999999,"WHM, TSWC., Grain Market Yard, KHAMMAM - I, Khammam Dist - 507 003.",Active
105,NALGONDA,INVESTOR GODOWN,KHAMMAM(IG) / PONNEKAL,KHAMMAM,0.0,,0.0,17.283618,80.092939,KHAMMAM,Active
106,NALGONDA,OWN,KHAMMAM-II OWN,KHAMMAM,16500.0,14186.46,2313.54,17.2438029,80.1145317,"Warehouse Manager ,TSWC.,KHAMMAM – II (IG), Warangal Road, Peddatanda,Gandhi Chowk,KHAMMAM DIST. 507 003.",Active
107,NALGONDA,OWN,KODAD OWN,SURYAPET,26500.0,56544.41,-30044.41,16.9830439,79.9457505,"WHM, TSWC., KODAD , Balajinagar, Nalgonda Dist - 508 201.",Active
108,NALGONDA,OWN,KOTHAGUDEM OWN,BHADRADRI KOTHAGUDEM,8300.0,7040.51,1259.49,17.568000199999997,80.6268715,"WHM, TSWC., KOTHAGUDEM, Laxmidevepalli, Khammam Dist - 507 106.",Active
109,NALGONDA,INVESTOR GODOWN,GAJALAPURAM IG,No Data,75168.0,7401.24,67766.76,,,Kukkadam,Active
110,NALGONDA,INVESTOR GODOWN,MIRYALAGUDA IG (RS),NALGONDA,50000.0,50276.01,-276.01,,,"WHM, TSWC., MIRYALAGUDA, Near Market Yard, Shadunagar, Nalgonda Dist - 508 207.",Active
111,NALGONDA,INVESTOR GODOWN,NAGIREDDYPALLY IG,KAMAREDDY,70000.0,9058.32,60941.68,18.113212,78.13324200000001,Nagireddypally,Active
112,NALGONDA,OWN,NALGONDA OWN,NALGONDA,16000.0,23193.13,-7193.13,17.083461,79.26370899999999,"WHM, TSWC., NALGONDA, 6-6-61, Behind Polytechnic College, Hyderabad Road, Nalgonda Dist - 508 001.",Active
113,NALGONDA,OWN,NEREDUCHERLA OWN,SURYAPET,12500.0,18721.58,-6221.58,18.1820487,79.4039925,"WHM, TSWC., NEREDUCHERLA (MIRYALAGUDA), Nalgonda Dist - 508 218.",Active
114,NALGONDA,OWN,PALVANCHA OWN,BHADRADRI KOTHAGUDEM,750.0,3781.84,-3031.84,17.577259100000003,80.7074637,"WHM, TSWC., KOTHAGUDEM, Laxmidevepalli, Khammam Dist - 507 106.",Active
115,NALGONDA,INVESTOR GODOWN,SHANTHINAGAR IG,NALGONDA,27500.0,13543.83,13956.17,,,"WHM, TSWC., KODAD – I, Shanthinagar, Nalgonda Dist - 508 201",Active
116,NALGONDA,OWN,SURYAPET OWN,SURYAPET,750.0,,750.0,,,"WHM, TSWC., SURYAPET ,AMC Premises, Nalgonda Dist - 508 201.",Active
117,NALGONDA,OWN,V.T.PALEM OWN,NALGONDA,20500.0,28255.97,-7755.97,16.8486107,79.5364287,"WHM, TSWC., VENKATADRIPALEM, Miryalaguda, Nalgonda Dist - 508 207.",Active
118,NALGONDA,INVESTOR GODOWN,WANGAPALLY IG,NALGONDA,40000.0,58138.45,-18138.45,,,Wangapally,Active
119,NALGONDA,INVESTOR GODOWN,TATIPUDI WYRA-IG,BHADRADRI KOTHAGUDEM,10000.0,10246.25,-246.25,,,Wyra,Active
120,HYDERABAD,AMC,AKKARAM,MAHABOOBNAGAR,10000.0,,10000.0,,,"WHM, TSWC., ZAHEERABAD (IG), Mogudumpalli X Road, National Highway No.9, Medak Dist - 502 117.",Active
121,HYDERABAD,INVESTOR GODOWN,AKKARAM IG,MAHABOOBNAGAR,25128.0,4194.4,20933.6,,,"TELANGANA STATE WAREHOUSING CORP Warehousing Sadan, 2nd Floor, Be",Active
122,HYDERABAD,AMC,ATMAKUR AMC,WANAPARTHY,5000.0,1673.55,3326.45,,,AMC ATMAKUR,Active
123,HYDERABAD,AMC,AMC ATMAKUR GUDEPPADHU,WANAPARTHY,1000.0,834.97,165.03,,,AMC ATMAKUR GUDEPPADHU,Active
124,HYDERABAD,AMC,AMC BALNAGAR,No Data,5000.0,,5000.0,16.936219,78.184161,AMC BALNAGAR,Active
125,HYDERABAD,AMC,AMC BHEEMADEVARAPALLI,WARANGAL(U),5000.0,,5000.0,,,AMC BHEEMADEVARAPALLI,Active
126,HYDERABAD,AMC,AMC BOOTHPOOR,MAHABOOBNAGAR,5000.0,,5000.0,,,AMC BOOTHPOOR,Active
127,HYDERABAD,AMC,AMC CHANDAPUR,MEDAK,2500.0,,2500.0,17.676299,78.19254000000001,AMC CHANDAPUR,Active
128,HYDERABAD,AMC,CHEGUNTA AMC,MEDAK,2500.0,2887.3,-387.3,17.979648,78.45525699999999,AMC CHEGUNTA,Active
129,HYDERABAD,AMC,AMC CHEVELLA,RANGA REDDY,3000.0,,3000.0,17.310470000000002,78.31978000000001,AMC CHEVELLA,Active
130,HYDERABAD,AMC,CHINNASHANKARAMPET AMC,MEDAK,2500.0,2525.13,-25.13,17.984237,78.41449899999999,AMC CHINASHANKARAMPET,Active
131,HYDERABAD,AMC,DHARMASAGAR AMC,WARANGAL(R),5000.0,3489.49,1510.51,,,AMC DHARMASAGAR,Active
132,HYDERABAD,AMC,DOULTHABAD AMC,SIDDIPET,2500.0,1724.59,775.41,17.989275,78.56270500000001,AMC DOULTHABAD,Active
133,HYDERABAD,AMC,DUBBAK AMC,SIDDIPET,5000.0,5013.17,-13.17,18.180827999999998,78.674162,AMC DUBBAK,Active
134,HYDERABAD,AMC,AMC DUGGONDI,WARANGAL(R),5000.0,,5000.0,,,AMC DUGGONDI,Active
135,HYDERABAD,AMC,ELKATHURTHY AMC,WARANGAL(U),5000.0,3397.62,1602.38,,,AMC ELKATHURTHY,Active
136,HYDERABAD,AMC,AMC ELLANDA,WARANGAL(U),2500.0,,2500.0,,,AMC ELLANDA,Active
137,HYDERABAD,AMC,AMC ENUMAMULA,WARANGAL(R),14500.0,,14500.0,,,AMC ENUMAMULA,Active
138,HYDERABAD,AMC,AMC ENUMAMULA MARKET YARD,WARANGAL(R),5000.0,,5000.0,,,AMC ENUMAMULA MARKET YARD,Active
139,HYDERABAD,AMC,GOVINDARAOPET AMC,JAYASHANKAR BHUPALPALLY,24000.0,6648.59,17351.41,18.194315,80.13388499999999,AMC GOVINDARAOPET,Active
140,HYDERABAD,AMC,HOTHI (K) AMC,MEDAK,5000.0,4203.52,796.48,17.635023,77.604752,AMC HOTHI,Active
141,HYDERABAD,AMC,AMC HUSNABAD,SIDDIPET,5000.0,,5000.0,18.128251000000002,79.216492,AMC HUSNABAD,Active
142,HYDERABAD,AMC,AMC JAGDEVPUR,SIDDIPET,10000.0,,10000.0,17.796245000000003,78.822092,AMC JAGDEVPUR,Active
143,HYDERABAD,AMC,KAMALAPUR AMC,WARANGAL(U),10000.0,9232.46,767.54,,,AMC KAMALAPUR,Active
144,HYDERABAD,AMC,KESAMUDRAM AMC,MEHABOOBABAD,2500.0,3467.13,-967.13,,,AMC KESAMUDRAM,Active
145,HYDERABAD,AMC,KOWDIPALLY AMC,MEDAK,5000.0,2751.06,2248.94,17.898006,78.205066,AMC KOUDIPALLY,Active
146,HYDERABAD,AMC,IEEJA AMC,JOGULAMBA,5000.0,2648.81,2351.19,,,AMC LEEJA,Active
147,HYDERABAD,AMC,MADANAPURAM AMC,MAHABOOBNAGAR,10000.0,5884.16,4115.84,,,AMC MADHANAPURAM,Active
148,HYDERABAD,AMC,MARIPEDA AMC,MEHABOOBABAD,3850.0,4116.71,-266.71,,,AMC MARIPEDA,Active
149,HYDERABAD,AMC,MASAIPET AMC,MEDAK,5000.0,4439.48,560.52,17.899604999999998,78.469725,AMC MASAIPET,Active
150,HYDERABAD,AMC,MEDAK AMC,MEDAK,2500.0,3974.0,-1474.0,18.039018,78.257074,AMC MEDAK,Active
151,HYDERABAD,AMC,AMC MUSALAMMAKUNTA,WARANGAL(U),5000.0,,5000.0,,,AMC MUSALAMMAKUNTA,Active
152,HYDERABAD,AMC,MUTRAJPALLY AMC,MEDAK,5000.0,10912.11,-5912.11,17.826379,78.249443,AMC MUTRAJPALLY,Active
153,HYDERABAD,AMC,AMC NALLABELLY,WARANGAL(U),5000.0,,5000.0,,,AMC NALLABELLY,Active
154,HYDERABAD,AMC,NARSAPUR AMC,MEDAK,5000.0,393.3,4606.7,17.47495,78.288362,AMC NARSAPUR,Active
155,HYDERABAD,AMC,NEKKONDA AMC,WARANGAL(R),5000.0,3539.67,1460.33,,,AMC NEKKONDA,Active
156,HYDERABAD,AMC,NELLIKUDURU AMC,No Data,2500.0,2971.16,-471.16,,,AMC NELIKUDURU,Active
157,HYDERABAD,AMC,PAPANNAPET AMC,MEDAK,2500.0,5338.48,-2838.48,18.026798,78.072989,AMC PAPANNAPET,Active
158,HYDERABAD,AMC,PARKAL AMC,WARANGAL(R),5000.0,4802.69,197.31,18.32695,79.684267,AMC PARKAL,Active
159,HYDERABAD,AMC,AMC PARVATHAPUR,RANGA REDDY,5000.0,,5000.0,,,AMC PARVATHAPUR,Active
160,HYDERABAD,AMC,PEDDASHANKARAMPET AMC,MEDAK,5000.0,3670.04,1329.96,18.0444,77.918786,AMC PEDDASHANKARAMPET,Active
161,HYDERABAD,AMC,RAMAYAMPET AMC,MEDAK,7500.0,10302.76,-2802.76,18.10531,78.433336,AMC RAMAYANPET,Active
162,HYDERABAD,AMC,AMC RAYAPARTHY,WARANGAL(R),2500.0,,2500.0,,,AMC RAYAPARTHI,Active
163,HYDERABAD,AMC,REGONDA AMC,JAYASHANKAR BHUPALPALLY,5000.0,3174.62,1825.38,18.223585999999997,79.77414499999999,AMC REGONDA,Active
164,HYDERABAD,AMC,SADASHIVPET AMC,SANGAREDDY,10000.0,2052.8,7947.2,17.626319,77.954412,AMC SADASHIVPET,Active
165,HYDERABAD,AMC,SHAYAMPET AMC,KARIMNAGAR,5000.0,5338.89,-338.89,,,AMC SAYAMPET,Active
166,HYDERABAD,AMC,SHADNAGAR AMC,RANGA REDDY,5000.0,3387.11,1612.89,17.041282,78.200179,AMC SHADNAGAR,Active
167,HYDERABAD,AMC,AMC SHIVAMPET,MEDAK,5000.0,,5000.0,17.772694,78.359234,AMC SHIVAMPET,Active
168,HYDERABAD,AMC,SIDDIPET AMC,SIDDIPET,5000.0,5247.33,-247.33,18.122784,78.870602,AMC Siddipet,Active
169,HYDERABAD,AMC,AMC TANDUR,VIKARABAD,5000.0,,5000.0,17.265004,77.62565,AMC TANDUR,Active
170,HYDERABAD,AMC,AMC TOOPRAN,MEDAK,5000.0,,5000.0,17.783410999999997,78.468593,AMC TOOPRAN,Active
171,HYDERABAD,AMC,TUNIKI BOLLARAM AMC,MEDAK,5000.0,4999.65,0.35000000000036,,,AMC TUNKI,Active
172,HYDERABAD,AMC,VATTPALLY AMC,SANGAREDDY,5000.0,4410.27,589.73,17.96876,77.831546,AMC VATPALLY,Active
173,HYDERABAD,AMC,VELTOOR AMC,MAHABOOBNAGAR,5000.0,,5000.0,,,AMC VELTOOR,Active
174,HYDERABAD,AMC,ZAFFARGADH AMC,JANGAON,5000.0,3707.22,1292.78,17.797545,79.491304,AMC ZAFFERGADH,Active
175,HYDERABAD,INVESTOR GODOWN,CHERLAPALLY IG,MEDCHAL,10000.0,3715.74,6284.26,,,Cherlapally,Active
176,HYDERABAD,INVESTOR GODOWN,CHINNADARAPALLY IG,MAHABOOBNAGAR,23345.0,,23345.0,,,"WHM, TSWC., CHINNADARPALLY, Vuduthula godowns, Hunwada Mandal, Mahaboobnagar Dist - 509 334.",Active
177,HYDERABAD,INVESTOR GODOWN,DHARMARAM IG,KARIMNAGAR,10000.0,9604.9,395.1,,,"WHM, TSWC., DHARMARAM (IG) Sainath Godowns, Narsampet Road, Warangal Dist - 506 330",Active
178,HYDERABAD,INVESTOR GODOWN,GADWAL,JOGULAMBA,10000.0,,10000.0,,,"WHM, TSWC., GADWAL (IG), Putanpalli, Gadwal, Mahaboobnagar Dist - 509 125.",Active
179,HYDERABAD,INVESTOR GODOWN,GORREKUNTA IG,WARANGAL(R),24000.0,22206.33,1793.67,,,gorrekunta,Active
180,HYDERABAD,OWN,GURRALAGONDI OWN,SIDDIPET,5000.0,5596.59,-596.59,18.211443799999998,78.82323740000001,Gurralagondi,Active
181,HYDERABAD,OWN,JADCHERLA OWN,MAHABOOBNAGAR,11500.0,10067.99,1432.01,16.74635124206543,78.143928527832,"WHM, TSWC., JADCHERLA, Badepalli Station, Mahaboobnagar Dist - 509 301.",Active
182,HYDERABAD,INVESTOR GODOWN,JADCHERLA IG,MAHABOOBNAGAR,25000.0,23421.04,1578.96,,,"WHM, TSWC., JADCHERLA (IG), Bhureddypalli Village, Kurnool Road, Mahaboobnagar Dist - 509 301.",Active
183,HYDERABAD,INVESTOR GODOWN,JANAGAON,JANGAON,1000.0,,1000.0,,,Janagaon,Active
184,HYDERABAD,INVESTOR GODOWN,KHANAPUR / WARANGAL,WARANGAL(R),5000.0,8251.4,-3251.4,,,"WHM, TSWC., KHANAPUR (IG), Chadalavada Godowns, Narsampet Tq, Warangal Dist -– 506 132.",Active
185,HYDERABAD,INVESTOR GODOWN,KOUKUNTLA IG,No Data,106666.0,159.28,106506.72,,,Koukuntla,Active
186,HYDERABAD,INVESTOR GODOWN,MAHABUBABAD IG 1,MEHABOOBABAD,5000.0,6410.12,-1410.12,,,"WHM, TSWC., MAHABOOBABAD (IG), Anantaram (V & P), Bayyaram Road, Warangal Dist - 506 001.",Active
187,HYDERABAD,INVESTOR GODOWN,MAHABUBABAD IG 2,MEHABOOBABAD,5000.0,6438.72,-1438.72,,,"WHM, TSWC., MAHABOOBABAD (IG), Anantaram (V & P), Bayyaram Road, Warangal Dist - 506 001.",Active
188,HYDERABAD,INVESTOR GODOWN,MUDEREDPALLY IG,No Data,6500.0,7561.54,-1061.54,,,Mudireddypalli,Active
189,HYDERABAD,OWN,MUSHEERABAD OWN,HYDERABAD,4000.0,,4000.0,17.4356884,78.4183459,"WHM, TSWC., MUSHEERABAD, Opp. Gandhi Hospital, Secunderabad. - 502 110.",Active
190,HYDERABAD,INVESTOR GODOWN,NEKKONDA,No Data,20000.0,,20000.0,,,Nekkonda,Active
191,HYDERABAD,PEG,NEKKONDA,No Data,50000.0,,50000.0,,,"WHM, TSWC., NEKKONDA New godowns, Warangal Dist - 506 122.",Active
192,HYDERABAD,AMC,SANGAREDDY,SANGAREDDY,5000.0,,5000.0,17.546176000000003,78.11955999999999,AMC SANGAREDDY,Active
193,HYDERABAD,OWN,SHADNAGAR OWN,RANGA REDDY,1000.0,,1000.0,17.080584899999998,78.2070571,"WHM, TSWC., SHADNAGAR (Saroop Nagar), Mahaboobnagar Dist - 509 301.",Active
194,HYDERABAD,INVESTOR GODOWN,SIDDANAPET,SIDDIPET,24000.0,,24000.0,,,SIDDANAPET,Active
195,HYDERABAD,INVESTOR GODOWN,SIDDIPET,No Data,5000.0,,5000.0,,,"WHM, TSWC., SIDDIPET (IG), Ponnala Village, Medak Dist 502 103.",Active
196,HYDERABAD,INVESTOR GODOWN,TUNIKI IG,MEDAK,22251.0,27.71,22223.29,,,"WHM, TSWC., MEDAK (IG), Chetpalli Kalam, Balnagar Village, Medak Dist - 502 117.",Active
197,HYDERABAD,PEG,VADLAKONDA PEG,JANGAON,10000.0,8525.74,1474.26,,,"WHM, TSWC., VADLAKONDA, Vadlakonda (V & P), Jangaon Mandal, Warangal Dist - 506 167.",Active
198,HYDERABAD,OWN,WARANGAL OWN,WARANGAL(U),12500.0,11557.93,942.07,17.9960472,79.6321473,"WHM, TSWC., WARANGAL, Desaipeta, Warangal Dist - 506 006.",Active
199,HYDERABAD,INVESTOR GODOWN,ZAHEERABAD IG,SANGAREDDY,10000.0,6113.84,3886.16,17.785857999999998,77.70736600000001,"WHM, TSWC., ZAHEERABAD (IG), Mogudumpalli X Road, National Highway No.9, Medak Dist - 502 117.",Active
200,HYDERABAD,AMC,BICHKUNDA AMC,KAMAREDDY,5000.0,916.16,4083.84,18.410409,77.725039,AMC Bichkonda,Active
201,HYDERABAD,AMC,JUKKAL AMC,KAMAREDDY,5000.0,1700.4,3299.6,18.351347,77.597875,AMC JUKKAL,Active
202,KARIMNAGAR,AMC,MADNOOR AMC,JAGTIAL,7500.0,5911.4,1588.6,,,AMC MADUNOOOR,Active
203,KARIMNAGAR,AMC,NAVIPET AMC,NIZAMABAD,5000.0,2775.78,2224.22,18.761763000000002,78.000489,AMC NAVIPET,Active
204,HYDERABAD,AMC,NIZAMSAGAR AMC,KAMAREDDY,5000.0,4512.17,487.83,18.228899,78.945073,AMC NIZAMSAGAR,Active
205,KARIMNAGAR,AMC,AMC BELA,ADILABAD,5000.0,,5000.0,19.71702,78.772981,AMC BELA,Active
206,HYDERABAD,AMC,AMC DHARMARAM,WARANGAL(U),5000.0,,5000.0,,,AMC DHARMARAM,Active
207,KARIMNAGAR,AMC,JAINATH AMC,ADILABAD,2500.0,1707.97,792.03,19.727541,78.64269499999999,AMC JAINATH,Active
208,KARIMNAGAR,INVESTOR GODOWN,PEDDABONKUR IG,KARIMNAGAR,2500.0,13033.35,-10533.35,,,"PEDDABONKUR, PEDDAPALLY, KARIMNAGAR",Active
209,HYDERABAD,AMC,AMC GURRALAGONDI,SIDDIPET,5000.0,,5000.0,18.202884,78.826036,AMC GURRALAGONDI,Active
210,HYDERABAD,AMC,SIDDANNAPET AMC,SIDDIPET,5000.0,,5000.0,18.074354999999997,79.028195,AMC SIDDANNAPET,Active
211,HYDERABAD,AMC,WARANGAL AMC,WARANGAL(U),10000.0,5921.73,4078.27,17.998847,79.627862,AMC WARANGAL,Active
212,HYDERABAD,AMC,AMC GORREKUNTA,WARANGAL(R),5000.0,,5000.0,17.963781,79.63766899999999,AMC GORREKUNTA,Active
213,HYDERABAD,AMC,AMC HANMAKONDA,WARANGAL(U),5000.0,,5000.0,17.979754,79.608618,AMC HANMAKONDA,Active
214,KARIMNAGAR,AMC,DHANORA AMC,ADILABAD,30000.0,5208.16,24791.84,19.804323,78.402173,AMC DHANORA,Active
215,HYDERABAD,AMC,AMC JADCHERLA,MAHABOOBNAGAR,5000.0,,5000.0,16.753598,78.146106,AMC JADCHERLA,Active
216,HYDERABAD,AMC,KOTHAKOTA AMC,WANAPARTHY,5000.0,3532.39,1467.61,16.377182,77.917614,AMC KOTHAKOTA,Active
217,HYDERABAD,AMC,AMC MUDIREDDYPALLI,MEDAK,5000.0,,5000.0,16.841273,78.158108,AMC MUDIREDDYPALLI,Active
218,HYDERABAD,AMC,MULUGU AMC,JAYASHANKAR BHUPALPALLY,5000.0,3916.97,1083.03,18.194315,80.13388499999999,AMC MULUGU,Active
219,HYDERABAD,AMC,NAGIREDDYPET AMC,KAMAREDDY,5000.0,5039.27,-39.27,18.113275,78.13355899999999,AMC NAGIREDDYPET,Active
220,HYDERABAD,AMC,AMC PARVATHAGIRI,WARANGAL(R),5000.0,,5000.0,17.738134,79.727779,AMC PARVATHAGIRI,Active
221,HYDERABAD,AMC,AMC SHANKARAMPET,MEDAK,5000.0,,5000.0,18.050625,77.90910600000001,AMC SHANKARAMPET,Active
222,HYDERABAD,AMC,AMC SHYAMAPET,WARANGAL(U),5000.0,,5000.0,18.117729999999998,79.730427,AMC SHYAMAPET,Active
223,KARIMNAGAR,AMC,AMC WANKIDI,KOMARAM BHEEM ASIFABAD,5000.0,,5000.0,19.445498999999998,79.313586,AMC WANKIDI,Active
224,HYDERABAD,INVESTOR GODOWN,KADUKUNTLA (IG),WANAPARTHY,5000.0,,5000.0,16.311308,77.975306,KADUKUNTLA,Active
225,HYDERABAD,INVESTOR GODOWN,YESHWANTHAPUR - IG,JANGAON,5000.0,11646.08,-6646.08,17.734146,79.19941999999999,YESHWANTHPUR,Active
226,KARIMNAGAR,AMC,POTHKAPALLY AMC,PEDDAPALLY,5000.0,4838.83,161.17,18.428345999999998,79.46346700000001,AMC POTKAPALLY,Active
227,KARIMNAGAR,AMC,KARIMNAGAR AMC,KARIMNAGAR,5000.0,,5000.0,18.444867000000002,79.14695,AMC KARIMNAGAR,Active
228,KARIMNAGAR,OWN,HUZURABAD OWN,KARIMNAGAR,15000.0,,15000.0,18.208669,79.390509,"TSWC, HUZURABAD",Active
229,NALGONDA,INVESTOR GODOWN,THIPPARTHY IG,NALGONDA,5000.0,34067.43,-29067.43,17.06457,79.265835,THIPARTHY,Active
230,NALGONDA,AMC,SATHUPALLY AMC,BHADRADRI KOTHAGUDEM,7500.0,7487.2,12.8,17.111735,80.74433,AMC SATHUPALLY,Active
231,NALGONDA,INVESTOR GODOWN,TATIPUDI (IG),BHADRADRI KOTHAGUDEM,5000.0,,5000.0,17.145143,80.337372,TATIPUDI,Active
232,NALGONDA,AMC,KALLURUGUDEM AMC,BHADRADRI KOTHAGUDEM,5000.0,5825.46,-825.46,17.112048,80.74465,AMC KALLURUGUDEM,Active
233,KARIMNAGAR,PEG,SULTHANABAD PEG,PEDDAPALLY,38000.0,36408.37,1591.63,,,,Active
234,KARIMNAGAR,PEG,Test warehouse,KARIMNAGAR,500.0,106.85,393.15,,,test Address,Active
235,NALGONDA,AMC,AMC MUTHAGUDEM,KHAMMAM,5000.0,,5000.0,,,Muthagudem Khammam,Active
236,NALGONDA,OWN,MIRYALAGUDA OWN,NALGONDA,2150.0,2238.8,-88.8,16.8755897,79.5698626,Miryalguda,Active
237,HYDERABAD,AMC,AMC KHANAPUR W(r),WARANGAL(R),3334.0,27.0,3307.0,,,Khanapur AMC,Active
238,NALGONDA,INVESTOR GODOWN,MARRIGUDA IG,NALGONDA,11200.0,11262.07,-62.07,,,"Marriguda IG, munugodu road, marriguda, Nalgonda",Active
239,NALGONDA,AMC,AMC MULAKALAPALLY,KHAMMAM,5000.0,5011.8,-11.8,,,AMC MULAKALAPALLY,Active
240,HYDERABAD,AMC,AMC MUNIPALLY,WARANGAL(U),5000.0,,5000.0,,,AMC Munipally,Active
241,NALGONDA,INVESTOR GODOWN,BADALAPURAM IG,NALGONDA,40000.0,32017.77,7982.23,,,,Active
242,NALGONDA,AMC,AMC CHIRUNOMULA,KHAMMAM,5000.0,,5000.0,,,"Bonakallu mandal, Chirunomula village, Khammam",Active
243,NALGONDA,AMC,LACHAGUDEM AMC,KHAMMAM,5000.0,4741.29,258.71,,,"Chinthakkani mandal, Lachagudem, Khammam",Active
244,NALGONDA,AMC,AMC APPAIGUDEM,KHAMMAM,5000.0,,5000.0,,,"Karepally mandal, Appaigudem village, Khammam",Active
245,NALGONDA,AMC,AMC MUCHARLA,KHAMMAM,5000.0,,5000.0,,,"Kamepally mandal, Mucharla village, Khammam",Active
246,KARIMNAGAR,AMC,Test,ADILABAD,5000.0,,5000.0,,,,Active
247,KARIMNAGAR,AMC,AMC Test,KARIMNAGAR,10000.0,,10000.0,,,Test,Active
248,HYDERABAD,AMC,GANGAPUR AMC,MAHABOOBNAGAR,10000.0,11199.44,-1199.44,,,,Active
249,HYDERABAD,AMC,ITIKYALA AMC,MAHABOOBNAGAR,10000.0,5890.12,4109.88,,,,Active
250,KARIMNAGAR,HIRED,KARIMNAGAR MARKFED,KARIMNAGAR,10000.0,20237.23,-10237.23,,,,Active
251,HYDERABAD,AMC,MANOOR AMC,MEDAK,2500.0,1890.37,609.63,,,,Inactive
252,KARIMNAGAR,INVESTOR GODOWN,NAGUNOOR IG,KARIMNAGAR,32500.0,33617.22,-1117.22,,,"NAGUNOOR, KARIMNAGAR",Active
253,No Data,No Data,SINGARAM - IG,No Data,30000.0,55397.65,-25397.65,,,,Inactive
254,KARIMNAGAR,AMC,GOPANPALLE AMC,NIZAMABAD,5000.0,768.14,4231.86,,,,Active
255,No Data,No Data,JUKAL AMC,No Data,2500.0,2108.0,392.0,,,,Active
256,HYDERABAD,AMC,KANDI AMC,MEDAK,2500.0,3591.91,-1091.91,,,,Active
257,KARIMNAGAR,PEG,KARIMNAGAR PEG,KARIMNAGAR,30000.0,17848.2,12151.8,,,,Active
258,KARIMNAGAR,AMC,KISANNAGAR AMC,NIZAMABAD,7500.0,4976.56,2523.44,,,,Active
259,No Data,No Data,MANGAPETA AMC,No Data,2500.0,2499.91,0.09000000000014599,,,,Inactive
260,No Data,No Data,MARKODU AMC,No Data,5000.0,603.71,4396.29,,,,Inactive
261,No Data,No Data,NYALKAL(MUNGI) AMC,No Data,2500.0,2185.46,314.54,,,,Inactive
262,No Data,No Data,NARSANNAPALLY IG,No Data,10000.0,3448.8,6551.2,,,,Inactive
263,No Data,No Data,SHALAPALLY IG,No Data,25000.0,28722.02,-3722.02,,,,Inactive
264,No Data,No Data,VELPOOR AMC,No Data,5000.0,5612.49,-612.49,,,,Inactive
265,NALGONDA,AMC,WAZEEDU AMC,No Data,5000.0,263.9,4736.1,,,,Active
266,HYDERABAD,AMC,BALLUSPALLY AMC,MAHABOOBNAGAR,5000.0,5921.69,-921.69,,,,Active
267,HYDERABAD,AMC,BANDARAVALLY AMC,MAHABOOBNAGAR,5000.0,3482.06,1517.94,,,,Active
268,HYDERABAD,AMC,CHILAKAMARRI IG,MAHABOOBNAGAR,10000.0,11629.6,-1629.6,,,,Active
269,HYDERABAD,AMC,JAFFERPALLY AMC,VIKARABAD,10000.0,2631.3,7368.7,,,,Active
270,KARIMNAGAR,AMC,JANKAMPET IG,NIZAMABAD,10000.0,9739.7,260.3,,,,Active
271,KARIMNAGAR,INVESTOR GODOWN,KALOOR I IG,NIZAMABAD,10000.0,12387.72,-2387.72,,,,Active
272,KARIMNAGAR,INVESTOR GODOWN,KALOOR II IG,NIZAMABAD,10000.0,11854.84,-1854.84,,,,Active
273,KARIMNAGAR,INVESTOR GODOWN,KHANAPUR - II IG NZB,NIZAMABAD,4000.0,4472.79,-472.79,,,,Active
274,HYDERABAD,AMC,KOLLAPUR AMC,NAGARKURNOOL,5000.0,2204.4,2795.6,,,,Active
275,NALGONDA,AMC,KONDA MALLEPALLY AMC,NALGONDA,4000.0,4445.28,-445.28,,,,Active
276,HYDERABAD,AMC,KONDURGU AMC,MAHABOOBNAGAR,5000.0,4800.38,199.62,,,,Active
277,No Data,No Data,MALLAPOOR AMC,No Data,5000.0,3321.81,1678.19,,,,Inactive
278,No Data,No Data,MORTHAD AMC,No Data,5000.0,3424.25,1575.75,,,,Inactive
279,No Data,No Data,MOLGARA AMC,No Data,5000.0,164.97,4835.03,,,,Inactive
280,No Data,No Data,PUTANPALLY IG,No Data,10000.0,5633.35,4366.65,,,,Inactive
281,No Data,No Data,SRINAGAR IG,No Data,4000.0,6036.6,-2036.6,,,,Inactive
282,HYDERABAD,AMC,STATIONGHANPUR AMC,JANGAON,5000.0,,5000.0,17.84469,79.375237,AMC GHANPUR STN,Active
283,HYDERABAD,AMC,ALAMPUR AMC,JOGULAMBA,5000.0,406.75,4593.25,,,,Active
284,HYDERABAD,AMC,BACHANNAPET AMC,JANGAON,5000.0,,5000.0,,,Jangaon,Active
285,KARIMNAGAR,AMC,AMC CHINCHOLI,NIRMAL,5000.0,2729.86,2270.14,,,AMC CHINCHOLI NIRMAL,Active
286,No Data,No Data,AMC Dilawarpoor,No Data,5000.0,1372.31,3627.69,,,,Inactive
287,No Data,No Data,ETURNAGARAM AMC,No Data,5000.0,592.88,4407.12,,,,Inactive
288,No Data,No Data,AMC Jam,No Data,5000.0,928.78,4071.22,,,,Inactive
289,No Data,No Data,NARMETTA AMC,No Data,5000.0,3693.1,1306.9,,,,Inactive
290,No Data,No Data,PEDDAPALLY(OWN),No Data,5000.0,5813.93,-813.93,,,,Inactive
291,No Data,No Data,RANGAPUR IG,No Data,25000.0,16156.41,8843.59,,,,Inactive
292,No Data,No Data,SHANKARAMPALLY AMC,No Data,5000.0,3544.08,1455.92,,,,Inactive
293,No Data,OWN,SIDDANNAPET OWN,SIDDIPET,5000.0,5307.31,-307.31,18.074641699999997,79.0286888,,Inactive
294,NALGONDA,OWN,HUZURNAGAR OWN,SURYAPET,17300.0,22028.48,-4728.48,18.182296700000002,79.4055233,"WHM, TSWC., HUZURNAGAR, Nalgonda Dist - 508 202.",Active
295,NALGONDA,INVESTOR GODOWN,V.T.PALEM IG,NALGONDA,20000.0,23031.03,-3031.03,,,"WHM, TSWC., VENKATADRIPALEM, Miryalaguda, Nalgonda Dist - 508 207.",Active
296,KARIMNAGAR,INVESTOR GODOWN,HUZURABAD IG - II,KARIMNAGAR,25000.0,28589.43,-3589.43,,,,Active
297,KARIMNAGAR,AMC,KOLHARI AMC,ADILABAD,5000.0,4970.51,29.49,,,,Active
298,NALGONDA,AMC,ETURUNAGAMRAM AMC,JAYASHANKAR BHUPALPALLY,7500.0,7698.94,-198.94,,,AMC Eturunagasram,Active
299,KARIMNAGAR,AMC,CHANDAPUR AMC,MEDAK,10000.0,485.83,9514.17,,,AMC CHANDAPUR,Active
300,KARIMNAGAR,AMC,JINNARAM AMC,MEDAK,5000.0,404.59,4595.41,,,AMC JINNARAM,Active
301,KARIMNAGAR,AMC,SHIVAMPET AMC,MEDAK,5000.0,377.55,4622.45,,,AMC SHIVAMPET,Active
302,KARIMNAGAR,AMC,PALAT AMC,MEDAK,5000.0,296.41,4703.59,,,AMC PALAT,Active
303,No Data,No Data,TADWAI AMC,No Data,5000.0,6248.06,-1248.06,,,,Inactive
304,No Data,No Data,MARKAL AMC,No Data,5000.0,8750.86,-3750.86,,,,Inactive
305,No Data,No Data,YELLAREDDY AMC,No Data,2500.0,4874.78,-2374.78,,,,Inactive
306,HYDERABAD,AMC,REGODE AMC,MEDAK,5000.0,2510.14,2489.86,,,,Active
307,NALGONDA,AMC,JULURUPADU AMC,BHADRADRI KOTHAGUDEM,5000.0,4458.29,541.71,,,PALVANCHA,Active
308,No Data,No Data,,No Data,,69047.36,-69047.36,,,,Inactive
309,No Data,No Data,NAGIREDDYPALLI IG,No Data,69200.0,154282.51,-85082.51,,,,Inactive
310,No Data,No Data,SEETHARAMPURAM-IG,No Data,25000.0,34897.78,-9897.78,,,,Inactive
311,HYDERABAD,AMC,NYALKAL AMC,SANGAREDDY,2500.0,,2500.0,,,"NEAR MUNGI CHOWRASTHA, NYALKAL, ZAHEERABAD",Active
312,HYDERABAD,AMC,DIGWAL AMC,SANGAREDDY,2500.0,3209.98,-709.98,,,"GINIYARPALLY RAOD, DIGWAL, ZAHEERABAD",Active
313,No Data,No Data,CHEBARTHI IG,No Data,5000.0,5699.32,-699.32,,,,Inactive
314,No Data,No Data,CHINNAKODUR AMC,No Data,5000.0,5291.15,-291.15,,,,Inactive
315,No Data,No Data,GOLLAPALLY AMC,No Data,5000.0,11946.2,-6946.2,,,,Inactive
316,No Data,No Data,JILLELLA AMC,No Data,5000.0,1133.32,3866.68,,,,Inactive
317,No Data,No Data,KOHEDA AMC,No Data,2500.0,2907.15,-407.15,,,,Inactive
318,No Data,No Data,MIRDODDI AMC,No Data,2500.0,1339.15,1160.85,,,,Inactive
319,No Data,No Data,MATAMPALLY AMC,No Data,2500.0,2524.78,-24.78,,,,Inactive
320,No Data,No Data,NASANNAPALLY- HG,No Data,10000.0,6617.43,3382.57,,,,Inactive
321,No Data,No Data,THIPPARTHY-IG,No Data,70000.0,24569.11,45430.89,,,,Inactive
322,No Data,No Data,BAYYARAM AMC,No Data,2000.0,1816.11,183.89,,,,Inactive
323,No Data,No Data,IRKODE IG,No Data,4000.0,3204.53,795.47,,,,Inactive
324,No Data,No Data,KESAMUDRAM IG,No Data,1500.0,1483.95,16.05,,,,Inactive
325,No Data,No Data,MADDUR AMC,No Data,5000.0,1694.1,3305.9,,,,Inactive
326,No Data,No Data,THORRUR AMC,No Data,2500.0,2002.3,497.7,,,,Inactive
327,No Data,No Data,BACHANNAPET AMC,No Data,5000.0,4574.55,425.45,,,,Inactive
328,No Data,No Data,BEEMARAM AMC,No Data,5000.0,6523.06,-1523.06,,,,Inactive
329,No Data,No Data,DEVARUPPULA AMC,No Data,5000.0,4844.65,155.35,,,,Inactive
330,No Data,No Data,JANGAON AMC,No Data,5000.0,5486.8,-486.8,,,,Inactive
331,No Data,No Data,KASIPET AMC,No Data,3333.0,2577.59,755.41,,,,Inactive
332,KARIMNAGAR,AMC,Bhiknoor AMC,NIZAMABAD,1500.0,1420.35,79.65,18.186318,78.39672900000001,,Active
333,HYDERABAD,AMC,TEKMAL AMC,MEDAK,2500.0,2615.2,-115.2,17.981945899999996,78.022571,,Active
334,HYDERABAD,AMC,KANGTI AMC,SANGAREDDY,2500.0,2177.8,322.2,18.2121,77.6108,,Active
335,HYDERABAD,INVESTOR GODOWN,MEDCHAL IG-I,MEDCHAL,18000.0,21902.79,-3902.79,17.589938,78.5151466,,Active
336,HYDERABAD,INVESTOR GODOWN,MEDCHAL IG-II,MEDCHAL,15000.0,4601.72,10398.28,17.574422,78.517179,,Active
337,NALGONDA,INVESTOR GODOWN,JAGGAYAPETA IG,SURYAPET,10000.0,,10000.0,16.900216600000004,80.1220162,"jaggayapeta, suryapet",Active
338,HYDERABAD,AMC,RAPARTHY AMC,SANGAREDDY,2500.0,2442.84,57.16,18.144612,77.85549300000001,"Raparthy, sangareddy",Active
339,HYDERABAD,INVESTOR GODOWN,VANGAPAHAD IG,WARANGAL(U),2000.0,2000.89,-0.8900000000000999,18.0372935,79.6128834,"VANGAPAHAD, Warangal",Active
